---
name: "Technopark Zürich"
url: "https://www.technopark.ch"

address:
  street: "Technoparkstrasse 1"
  city: "Zürich"
  region: "Zürich"
  postal_code: "8005"
  country: "Switzerland"
  country_code: "CH"
  display: "Technoparkstrasse 1, 8005 Zürich, Switzerland"

coordinates:
  latitude: 47.3893338
  longitude: 8.5157189

maps:
  google: "https://www.google.com/maps/search/?api=1&query=47.3893338,8.5157189"
  openstreetmap: "https://www.openstreetmap.org/?mlat=47.3893338&mlon=8.5157189&zoom=17"

hotels:
  - name: "Novotel Zürich City-West"
    description: "Adjacent to venue"
    url: "https://all.accor.com/hotel/2731/index.en.shtml"
    address:
      street: "Turbinenplatz 13"
      city: "Zürich"
      region: "Zürich"
      postal_code: "8005"
      country: "Switzerland"
      country_code: "CH"
      display: "Turbinenplatz 13, 8005 Zürich, Switzerland"
    coordinates:
      latitude: 47.3891116
      longitude: 8.5168028

  - name: "Ibis Zürich City-West"
    description: "Adjacent to venue"
    url: "https://all.accor.com/hotel/2942/index.en.shtml"
    address:
      street: "Schiffbaustrasse 11"
      city: "Zürich"
      region: "Zürich"
      postal_code: "8005"
      country: "Switzerland"
      country_code: "CH"
      display: "Schiffbaustrasse 11, 8005 Zürich, Switzerland"
    coordinates:
      latitude: 47.3889746
      longitude: 8.5170924

  - name: "Ibis Budget Zürich City-West"
    description: "Adjacent to venue"
    url: "https://all.accor.com/hotel/3184/index.en.shtml"
    address:
      street: "Technoparkstrasse 2"
      city: "Zürich"
      region: "Zürich"
      postal_code: "8005"
      country: "Switzerland"
      country_code: "CH"
      display: "Technoparkstrasse 2, 8005 Zürich, Switzerland"
    coordinates:
      latitude: 47.3889874
      longitude: 8.5162188

  - name: "25hours Hotel Zürich West"
    description: "Walking distance"
    url: "https://www.25hours-hotels.com"
    address:
      street: "Pfingstweidstrasse 102"
      city: "Zürich"
      region: "Zürich"
      postal_code: "8005"
      country: "Switzerland"
      country_code: "CH"
      display: "Pfingstweidstrasse 102, 8005 Zürich, Switzerland"
    coordinates:
      latitude: 47.3909238
      longitude: 8.5098939

  - name: "Hotel Züri by Fassbind"
    description: "Walking distance"
    url: "https://www.byfassbind.com"
    address:
      street: "Heinrichstrasse 254"
      city: "Zürich"
      region: "Zürich"
      postal_code: "8005"
      country: "Switzerland"
      country_code: "CH"
      display: "Heinrichstrasse 254, 8005 Zürich, Switzerland"
    coordinates:
      latitude: 47.389367
      longitude: 8.5220483
