---
name: "Kinoteka, Palace of Culture and Science"

description: |-
  Pałac Kultury i Nauki

address:
  street: "1 plac Defilad"
  city: "Warszawa"
  region: "Województwo mazowieckie"
  postal_code: "00-901"
  country: "Poland"
  country_code: "PL"
  display: "pl. Defilad 1, 00-901 Warszawa, Poland"

coordinates:
  latitude: 52.231838
  longitude: 21.005995

maps:
  google: "https://maps.google.com/?q=Kinoteka,+Palace+of+Culture+and+Science,52.2312884,21.0065014"
  apple: "https://maps.apple.com/?q=Kinoteka,+Palace+of+Culture+and+Science&ll=52.2312884,21.0065014"
  openstreetmap: "https://www.openstreetmap.org/?mlat=52.2312884&mlon=21.0065014"

locations:
  - name: "Visuality"
    kind: "Workshops"
    address:
      street: "56 Odolańska"
      city: "Warszawa"
      region: "Województwo mazowieckie"
      postal_code: "02-562"
      country: "Poland"
      country_code: "PL"
      display: "Odolańska 56, 02-562 Warszawa, Poland"
    coordinates:
      latitude: 52.2002536
      longitude: 21.0128232
    maps:
      google: "https://maps.google.com/?q=Visuality,52.2002536,21.0128232"
      apple: "https://maps.apple.com/?q=Visuality&ll=52.2002536,21.0128232"
      openstreetmap: "https://www.openstreetmap.org/?mlat=52.2002536&mlon=21.0128232"

  - name: "SOFTSWISS"
    kind: "Workshops"
    address:
      street: "28 Towarowa"
      city: "Warszawa"
      region: "Województwo mazowieckie"
      postal_code: "00-847"
      country: "Poland"
      country_code: "PL"
      display: "Towarowa 28, 10th floor, 00-847 Warszawa, Poland"
    coordinates:
      latitude: 52.2313203
      longitude: 20.9844122
    maps:
      google: "https://maps.google.com/?q=SOFTSWISS,52.2313203,20.9844122"
      apple: "https://maps.apple.com/?q=SOFTSWISS&ll=52.2313203,20.9844122"
      openstreetmap: "https://www.openstreetmap.org/?mlat=52.2313203&mlon=20.9844122"

  - name: "CodersLab"
    kind: "Workshops"
    description: |-
      Prosta Office Centre
    address:
      street: "51 Prosta"
      city: "Warszawa"
      region: "Województwo mazowieckie"
      postal_code: "00-838"
      country: "Poland"
      country_code: "PL"
      display: "Prosta 51, 00-838 Warszawa, Poland"
    coordinates:
      latitude: 52.2304938
      longitude: 20.9874117
    maps:
      google: "https://maps.google.com/?q=CodersLab,52.2304938,20.9874117"
      apple: "https://maps.apple.com/?q=CodersLab&ll=52.2304938,20.9874117"
      openstreetmap: "https://www.openstreetmap.org/?mlat=52.2304938&mlon=20.9874117"

  - name: "Bowling Club Arco"
    kind: "After Party"
    address:
      street: "19 Bitwy Warszawskiej 1920 Roku"
      city: "Warszawa"
      region: "Województwo mazowieckie"
      postal_code: "02-366"
      country: "Poland"
      country_code: "PL"
      display: "Bitwy Warszawskiej 1920 Roku 19, 02-366 Warszawa, Poland"
    coordinates:
      latitude: 52.2150074
      longitude: 20.9643141
    maps:
      google: "https://maps.google.com/?q=Bowling+Club+Arco,52.2150074,20.9643141"
      apple: "https://maps.apple.com/?q=Bowling+Club+Arco&ll=52.2150074,20.9643141"
      openstreetmap: "https://www.openstreetmap.org/?mlat=52.2150074&mlon=20.9643141"
